City ID,City,Country,Date,Lat,Lng,Max Temp,Humidity,Cloudiness,Wind Speed,Current Description,Rain inches (last 3hrs),Snow inches (last 3hrs)
0,Qaqortoq,GL,2020-02-23 20:23:18,60.72,-46.03,24.8,53,100,9.17,light snow,0.0,0.94
1,Cape Town,ZA,2020-02-23 20:20:11,-33.93,18.42,68.0,56,0,20.8,clear sky,0.0,0.0
2,Tasiilaq,GL,2020-02-23 20:20:12,65.61,-37.64,12.2,66,60,17.22,broken clouds,0.0,0.0
3,Yellowknife,CA,2020-02-23 20:20:12,62.46,-114.35,-4.0,63,20,6.93,few clouds,0.0,0.0
4,Samana,DO,2020-02-23 20:20:12,19.21,-69.34,75.2,94,75,4.7,light rain,0.0,0.0
5,Port Alfred,ZA,2020-02-23 20:20:12,-33.59,26.89,61.0,81,50,2.01,scattered clouds,0.0,0.0
6,Mataura,NZ,2020-02-23 20:20:13,-46.19,168.86,55.0,89,77,5.01,broken clouds,0.0,0.0
7,Ushtobe,KZ,2020-02-23 20:20:13,45.25,77.98,30.9,87,93,1.92,overcast clouds,0.0,0.0
8,Vaini,TO,2020-02-23 20:20:13,-21.2,-175.2,80.6,88,40,9.17,scattered clouds,0.0,0.0
9,Punta Arenas,CL,2020-02-23 20:20:13,-53.15,-70.92,55.4,62,75,32.21,broken clouds,0.0,0.0
10,Rawson,AR,2020-02-23 20:20:13,-43.3,-65.1,61.45,82,0,15.26,clear sky,0.0,0.0
11,Mar Del Plata,AR,2020-02-23 20:20:14,-38.0,-57.56,86.0,50,40,12.75,scattered clouds,0.0,0.0
12,Cherskiy,RU,2020-02-23 20:20:14,68.75,161.3,-27.56,89,48,6.17,scattered clouds,0.0,0.0
13,Warrnambool,AU,2020-02-23 20:20:14,-38.38,142.48,57.99,96,100,6.4,overcast clouds,0.0,0.0
14,Ilulissat,GL,2020-02-23 20:18:32,69.22,-51.1,-4.0,53,0,8.05,clear sky,0.0,0.0
15,Jamestown,US,2020-02-23 20:16:36,42.1,-79.24,51.8,24,1,19.46,clear sky,0.0,0.0
16,Bluff,NZ,2020-02-23 20:18:24,-46.6,168.33,54.0,90,66,4.0,broken clouds,0.0,0.0
17,Muroto,JP,2020-02-23 20:20:15,33.28,134.15,39.16,58,0,4.94,clear sky,0.0,0.0
18,Tanabe,JP,2020-02-23 20:20:15,33.73,135.37,35.01,88,0,6.89,clear sky,0.0,0.0
19,Ponta Do Sol,PT,2020-02-23 20:20:15,32.67,-17.1,68.0,49,20,19.46,few clouds,0.0,0.0
20,Provideniya,RU,2020-02-23 20:20:16,64.38,-173.3,-6.63,70,0,2.08,clear sky,0.0,0.0
21,Qaanaaq,GL,2020-02-23 20:20:16,77.48,-69.36,-19.41,68,0,7.14,clear sky,0.0,0.0
22,Hobart,AU,2020-02-23 20:20:01,-42.88,147.33,57.2,76,75,4.7,broken clouds,0.0,0.0
23,Debelec,BG,2020-02-23 20:20:16,43.03,25.62,45.0,93,91,3.36,overcast clouds,0.0,0.0
24,Narsaq,GL,2020-02-23 20:20:16,60.92,-46.05,24.8,53,100,9.17,light snow,0.0,1.44
25,Kapaa,US,2020-02-23 20:16:10,22.08,-159.32,75.2,73,1,6.93,clear sky,0.0,0.0
26,Arraial Do Cabo,BR,2020-02-23 20:17:02,-22.97,-42.03,78.8,65,75,9.17,broken clouds,0.0,0.0
27,Ushuaia,AR,2020-02-23 20:18:23,-54.8,-68.3,48.2,81,90,23.04,light rain,0.0,0.0
28,Hermanus,ZA,2020-02-23 20:18:25,-34.42,19.23,68.0,78,0,5.01,clear sky,0.0,0.0
29,Brasilia,BR,2020-02-23 20:17:50,-15.78,-47.93,80.6,61,40,2.24,scattered clouds,0.0,0.0
30,Lasa,IT,2020-02-23 20:20:18,46.62,10.7,50.0,91,20,5.82,few clouds,0.0,0.0
31,Zhanaozen,KZ,2020-02-23 20:20:18,43.3,52.8,43.48,94,100,7.29,overcast clouds,0.0,0.0
32,Kucevo,RS,2020-02-23 20:20:18,44.48,21.67,44.83,54,8,4.72,clear sky,0.0,0.0
33,Tuktoyaktuk,CA,2020-02-23 20:20:18,69.45,-133.04,-5.8,76,90,18.34,light snow,0.0,0.0
34,Shakhtinsk,KZ,2020-02-23 20:20:19,49.71,72.59,17.6,85,75,6.71,broken clouds,0.0,0.0
35,Matara,LK,2020-02-23 20:17:18,5.95,80.54,74.17,85,100,7.92,overcast clouds,0.0,0.0
36,Nanortalik,GL,2020-02-23 20:20:19,60.14,-45.24,27.72,79,100,1.72,light snow,0.0,0.94
37,Busselton,AU,2020-02-23 20:20:20,-33.65,115.33,68.0,46,72,14.25,broken clouds,0.0,0.0
38,Brae,GB,2020-02-23 20:20:20,60.4,-1.35,35.6,81,96,19.46,light rain,0.0,0.0
39,Sungurlu,TR,2020-02-23 20:20:20,40.17,34.37,31.37,89,0,5.21,clear sky,0.0,0.0
40,Hilo,US,2020-02-23 20:19:31,19.73,-155.09,78.8,57,75,10.29,broken clouds,0.0,0.0
41,Gizo,SB,2020-02-23 20:20:21,-8.1,156.84,78.8,86,16,4.09,few clouds,0.0,0.0
42,Pachino,IT,2020-02-23 20:20:21,36.72,15.09,50.0,87,67,5.82,broken clouds,0.0,0.0
43,San Andres,CO,2020-02-23 20:20:21,12.58,-81.7,86.0,62,40,9.17,scattered clouds,0.0,0.0
44,Sinnamary,GF,2020-02-23 20:20:21,5.38,-52.95,78.96,81,87,15.17,light rain,0.13,0.0
45,Surt,LY,2020-02-23 20:23:31,31.21,16.59,53.74,70,2,8.03,clear sky,0.0,0.0
46,Ribeira Grande,PT,2020-02-23 20:23:31,38.52,-28.7,60.8,77,75,5.82,broken clouds,0.0,0.0
47,Svirstroy,RU,2020-02-23 20:23:31,60.8,33.72,33.73,98,100,8.34,light snow,0.0,0.38
48,San Patricio,MX,2020-02-23 20:23:31,19.22,-104.7,84.2,74,5,13.87,clear sky,0.0,0.0
49,Chokwe,MZ,2020-02-23 20:23:32,-24.53,32.98,71.01,78,87,10.96,overcast clouds,0.0,0.0
50,Sampit,ID,2020-02-23 20:23:32,-2.53,112.95,75.33,95,13,1.97,light rain,0.5,0.0
51,Edd,ER,2020-02-23 20:23:32,13.93,41.69,81.84,47,49,6.8,scattered clouds,0.0,0.0
52,Esperance,AU,2020-02-23 20:23:32,-33.87,121.9,64.4,88,90,11.41,overcast clouds,0.0,0.0
53,Malacacheta,BR,2020-02-23 20:23:33,-17.84,-42.08,72.12,95,100,6.35,moderate rain,5.81,0.0
54,Andenes,NO,2020-02-23 20:23:33,69.31,16.12,35.6,93,75,35.57,light rain,0.0,0.0
55,Saskylakh,RU,2020-02-23 20:18:34,71.92,114.08,5.74,91,100,8.63,overcast clouds,0.0,0.0
56,Severo-Kurilsk,RU,2020-02-23 20:23:33,50.68,156.12,24.21,95,100,35.48,snow,0.0,2.75
57,Fortuna,US,2020-02-23 20:23:33,40.6,-124.16,59.0,76,75,5.01,broken clouds,0.0,0.0
58,Paita,PE,2020-02-23 20:23:34,-5.09,-81.11,62.6,100,75,10.29,broken clouds,0.0,0.0
59,Goundi,TD,2020-02-23 20:23:34,9.36,17.37,84.2,11,0,7.74,clear sky,0.0,0.0
60,Yertsevo,RU,2020-02-23 20:23:34,60.8,40.09,30.67,96,99,10.47,light snow,0.0,0.81
61,Obo,CF,2020-02-23 20:23:34,5.4,26.49,76.95,17,4,5.97,clear sky,0.0,0.0
62,Loa Janan,ID,2020-02-23 20:23:34,-0.58,117.09,72.82,92,45,2.77,scattered clouds,0.0,0.0
63,Bredasdorp,ZA,2020-02-23 20:23:35,-34.53,20.04,66.2,55,0,11.41,clear sky,0.0,0.0
64,Marystown,CA,2020-02-23 20:23:35,47.17,-55.15,31.06,85,0,14.23,clear sky,0.0,0.0
65,Sept-Iles,CA,2020-02-23 20:20:47,50.2,-66.38,34.0,86,75,6.93,broken clouds,0.0,0.0
66,Kolokani,ML,2020-02-23 20:23:35,13.57,-8.03,85.44,10,37,8.37,scattered clouds,0.0,0.0
67,Georgetown,MY,2020-02-23 20:21:12,5.41,100.34,80.6,74,20,3.36,few clouds,0.0,0.0
68,Lugovoy,KZ,2020-02-23 20:23:36,42.95,72.76,32.41,93,100,2.33,overcast clouds,0.0,0.0
69,New Norfolk,AU,2020-02-23 20:23:36,-42.78,147.06,57.0,82,75,3.36,broken clouds,0.0,0.0
70,Butaritari,KI,2020-02-23 20:23:36,3.07,172.79,84.88,77,76,12.91,moderate rain,6.0,0.0
71,Avarua,CK,2020-02-23 20:23:37,-21.21,-159.78,80.6,88,100,2.24,light rain,0.0,0.0
72,Saint-Philippe,RE,2020-02-23 20:23:37,-21.36,55.77,75.2,78,0,6.93,clear sky,0.0,0.0
73,Vardo,NO,2020-02-23 20:23:37,70.37,31.11,26.6,86,75,5.82,shower rain,0.0,0.0
74,Rikitea,PF,2020-02-23 20:23:37,-23.12,-134.97,79.2,70,0,6.13,clear sky,0.0,0.0
75,Waingapu,ID,2020-02-23 20:18:46,-9.66,120.26,83.1,78,49,17.94,scattered clouds,0.0,0.0
76,Miquelon,PM,2020-02-23 20:23:38,47.1,-56.38,33.8,80,0,14.99,clear sky,0.0,0.0
77,Lebu,CL,2020-02-23 20:23:38,-37.62,-73.65,63.63,63,0,9.86,clear sky,0.0,0.0
78,Nikolskoye,RU,2020-02-23 20:23:38,59.7,30.79,37.4,86,90,11.18,light intensity shower rain,0.0,0.0
79,San Ignacio,BZ,2020-02-23 20:23:39,17.16,-89.07,84.2,48,20,9.17,few clouds,0.0,0.0
80,Horta,PT,2020-02-23 20:23:39,38.53,-28.63,60.8,77,75,5.82,broken clouds,0.0,0.0
81,Totma,RU,2020-02-23 20:23:39,59.97,42.76,31.48,93,100,9.33,light snow,0.0,0.56
82,Dikson,RU,2020-02-23 20:23:39,73.51,80.55,28.47,92,100,27.6,light snow,0.0,0.25
83,Muros,ES,2020-02-23 20:23:40,42.78,-9.06,60.01,93,0,3.36,clear sky,0.0,0.0
84,Namatanai,PG,2020-02-23 20:23:40,-3.67,152.43,83.97,75,39,10.16,scattered clouds,0.0,0.0
85,Iqaluit,CA,2020-02-23 20:23:40,63.75,-68.51,-23.01,67,20,13.87,few clouds,0.0,0.0
86,Cap Malheureux,MU,2020-02-23 20:23:40,-19.98,57.61,77.0,88,40,3.36,scattered clouds,0.0,0.0
87,Shelopugino,RU,2020-02-23 20:23:41,51.65,117.56,1.15,95,0,2.26,clear sky,0.0,0.0
88,Piet Retief,ZA,2020-02-23 20:23:41,-27.01,30.81,52.56,96,99,5.61,light rain,0.13,0.0
89,Portland,US,2020-02-23 20:20:21,45.52,-122.68,52.0,70,40,17.22,moderate rain,0.0,0.0
90,East London,ZA,2020-02-23 20:23:41,-33.02,27.91,66.15,60,73,4.21,broken clouds,0.0,0.0
91,Castro,BR,2020-02-23 20:23:41,-24.79,-50.01,67.93,78,90,2.66,overcast clouds,0.0,0.0
92,Lavrentiya,RU,2020-02-23 20:23:42,65.58,-171.0,-7.56,75,0,5.14,clear sky,0.0,0.0
93,Sibolga,ID,2020-02-23 20:23:42,1.74,98.78,70.74,89,0,4.03,clear sky,0.0,0.0
94,Kununurra,AU,2020-02-23 20:23:42,-15.77,128.73,77.0,88,78,3.36,broken clouds,0.0,0.0
95,Parga,GR,2020-02-23 20:23:43,39.28,20.4,50.0,76,46,1.99,scattered clouds,0.0,0.0
96,Barrow,US,2020-02-23 20:19:46,71.29,-156.79,-27.4,74,1,12.75,clear sky,0.0,0.0
97,Matay,EG,2020-02-23 20:23:43,28.42,30.78,48.34,67,51,4.68,broken clouds,0.0,0.0
98,Atuona,PF,2020-02-23 20:23:43,-9.8,-139.03,81.61,76,8,13.73,clear sky,0.0,0.0
99,Rio Grande,BR,2020-02-23 20:23:21,-32.03,-52.1,77.0,50,20,16.11,few clouds,0.0,0.0
100,Schattdorf,CH,2020-02-23 20:23:44,46.87,8.65,64.4,36,20,13.87,few clouds,0.0,0.0
101,Hithadhoo,MV,2020-02-23 20:23:44,-0.6,73.08,83.41,76,92,13.69,overcast clouds,0.0,0.0
102,Salalah,OM,2020-02-23 20:23:44,17.02,54.09,75.2,78,0,3.36,clear sky,0.0,0.0
103,Pithora,IN,2020-02-23 20:23:44,21.27,82.52,67.73,71,29,5.53,light rain,1.25,0.0
104,Albany,US,2020-02-23 20:23:44,42.6,-73.97,52.0,29,75,6.93,broken clouds,0.0,0.0
105,Dahanu,IN,2020-02-23 20:23:45,19.97,72.73,77.41,67,0,15.14,clear sky,0.0,0.0
106,Victoria,HK,2020-02-23 20:20:11,22.29,114.16,68.0,63,20,14.99,few clouds,0.0,0.0
107,Xining,CN,2020-02-23 20:23:45,36.62,101.77,27.03,48,0,1.79,clear sky,0.0,0.0
108,Ventspils,LV,2020-02-23 20:23:45,57.39,21.56,41.0,100,75,13.87,broken clouds,0.0,0.0
109,Souillac,MU,2020-02-23 20:23:46,-20.52,57.52,77.0,88,40,3.36,scattered clouds,0.0,0.0
110,Akita,JP,2020-02-23 20:23:46,39.72,140.12,43.12,63,100,25.03,light rain,0.25,0.0
111,Pochutla,MX,2020-02-23 20:23:46,15.74,-96.47,87.8,62,40,11.41,scattered clouds,0.0,0.0
112,Sao Filipe,CV,2020-02-23 20:23:46,14.9,-24.5,68.41,83,23,16.4,few clouds,0.0,0.0
113,Luderitz,NA,2020-02-23 20:23:47,-26.65,15.16,71.46,57,0,24.92,clear sky,0.0,0.0
114,Vostok,RU,2020-02-23 20:23:47,46.49,135.88,5.68,92,100,3.89,overcast clouds,0.0,0.0
115,Camacha,PT,2020-02-23 20:23:47,33.08,-16.33,68.0,82,20,23.04,few clouds,0.0,0.0
116,Roald,NO,2020-02-23 20:23:48,62.58,6.13,37.4,64,75,10.29,broken clouds,0.0,0.0
117,Goderich,CA,2020-02-23 20:19:31,43.75,-81.72,46.0,59,17,4.0,few clouds,0.0,0.0
118,Tautira,PF,2020-02-23 20:23:48,-17.73,-149.15,87.8,62,20,14.99,few clouds,0.0,0.0
119,Ostrovnoy,RU,2020-02-23 20:23:48,68.05,39.51,29.05,95,100,15.93,light snow,0.0,0.44
120,Puerto Ayora,EC,2020-02-23 20:23:49,-0.74,-90.35,84.2,74,20,10.29,few clouds,0.0,0.0
121,Roma,US,2020-02-23 20:22:40,43.21,-75.46,50.0,33,1,4.7,clear sky,0.0,0.0
122,Chuy,UY,2020-02-23 20:23:49,-33.7,-53.46,71.87,61,23,10.29,few clouds,0.0,0.0
123,Ola,RU,2020-02-23 20:23:49,59.58,151.28,-8.52,91,47,6.35,scattered clouds,0.0,0.0
124,Putnok,HU,2020-02-23 20:23:50,48.3,20.43,47.14,85,100,19.46,light rain,2.0,0.0
125,Zhigansk,RU,2020-02-23 20:23:50,66.77,123.37,-12.48,97,99,11.03,overcast clouds,0.0,0.0
126,Nacala,MZ,2020-02-23 20:23:50,-14.54,40.67,76.6,97,54,4.41,light rain,1.38,0.0
127,Tumut,AU,2020-02-23 20:23:50,-35.3,148.22,62.42,87,45,1.92,scattered clouds,0.0,0.0
128,Biltine,TD,2020-02-23 20:23:50,14.53,20.92,69.49,17,0,11.99,clear sky,0.0,0.0
129,Puerto Escondido,MX,2020-02-23 20:23:51,15.85,-97.07,87.8,79,20,10.29,few clouds,0.0,0.0
130,Marawi,PH,2020-02-23 20:23:51,8.0,124.29,73.99,86,42,5.01,scattered clouds,0.0,0.0
131,Tripoli,LY,2020-02-23 20:21:23,32.88,13.19,58.73,67,0,7.14,clear sky,0.0,0.0
132,Jibuti,DJ,2020-02-23 20:23:51,11.5,42.5,78.8,74,75,14.74,broken clouds,0.0,0.0
133,Boshnyakovo,RU,2020-02-23 20:23:52,49.63,142.17,12.22,85,0,11.16,clear sky,0.0,0.0
134,Hibbing,US,2020-02-23 20:23:52,47.43,-92.94,41.0,56,1,21.92,clear sky,0.0,0.0
135,Maniwaki,CA,2020-02-23 20:23:52,46.38,-75.97,33.19,96,100,6.31,overcast clouds,0.0,0.0
136,Stornoway,GB,2020-02-23 20:19:59,58.21,-6.39,36.0,80,15,5.82,few clouds,0.0,0.0
137,Parfenyevo,RU,2020-02-23 20:23:53,58.48,43.41,32.4,92,99,11.16,light snow,0.0,0.5
138,Bethel,US,2020-02-23 20:23:53,41.37,-73.41,55.99,20,1,13.87,clear sky,0.0,0.0
139,Carnarvon,AU,2020-02-23 20:23:53,-24.87,113.63,71.6,83,0,5.82,clear sky,0.0,0.0
140,Hovd,MN,2020-02-23 20:23:53,48.01,91.64,15.84,71,100,0.92,overcast clouds,0.0,0.0
141,Coquimbo,CL,2020-02-23 20:18:55,-29.95,-71.34,68.0,64,49,12.75,scattered clouds,0.0,0.0
142,Chokurdakh,RU,2020-02-23 20:23:54,70.63,147.92,-20.96,97,77,2.82,broken clouds,0.0,0.0
143,Sonoita,MX,2020-02-23 20:23:54,31.85,-112.83,63.0,51,0,12.48,clear sky,0.0,0.0
144,Seoul,KR,2020-02-23 20:22:00,37.57,126.98,33.8,86,1,1.12,clear sky,0.0,0.0
145,Shimanovsk,RU,2020-02-23 20:23:54,52.0,127.7,6.67,96,100,4.07,light snow,0.0,0.13
146,Black River,JM,2020-02-23 20:23:54,18.03,-77.85,82.4,69,20,18.34,few clouds,0.0,0.0
147,Menongue,AO,2020-02-23 20:23:55,-14.66,17.69,63.45,98,100,4.0,moderate rain,7.0,0.0
148,Havelock,US,2020-02-23 20:23:55,34.88,-76.9,64.4,23,40,10.29,scattered clouds,0.0,0.0
149,Sotouboua,TG,2020-02-23 20:23:55,8.57,0.98,82.11,20,27,3.53,scattered clouds,0.0,0.0
150,Leningradskiy,RU,2020-02-23 20:23:56,69.38,178.42,-14.89,72,100,5.88,overcast clouds,0.0,0.0
151,Kudat,MY,2020-02-23 20:23:56,6.88,116.85,80.6,78,75,6.93,broken clouds,0.0,0.0
152,Yarovoye,RU,2020-02-23 20:23:56,52.93,78.58,14.02,96,67,3.13,broken clouds,0.0,0.0
153,Biak,ID,2020-02-23 20:23:56,-0.91,122.88,81.99,75,59,8.19,broken clouds,0.0,0.0
154,Cayenne,GF,2020-02-23 20:23:56,4.93,-52.33,82.4,74,75,13.87,broken clouds,0.0,0.0
155,Necochea,AR,2020-02-23 20:23:57,-38.55,-58.74,87.01,20,0,10.0,clear sky,0.0,0.0
156,Sangar,RU,2020-02-23 20:23:57,63.92,127.47,-16.11,99,100,0.98,overcast clouds,0.0,0.0
157,Ponta Delgada,PT,2020-02-23 20:23:57,37.73,-25.67,59.0,87,20,5.82,few clouds,0.0,0.0
158,Nabire,ID,2020-02-23 20:19:08,-3.37,135.48,72.88,99,97,0.89,heavy intensity rain,12.13,0.0
159,Port Elizabeth,ZA,2020-02-23 20:23:57,-33.92,25.57,59.0,77,0,2.24,clear sky,0.0,0.0
160,Grindavik,IS,2020-02-23 20:23:58,63.84,-22.43,33.8,64,75,24.16,broken clouds,0.0,0.0
161,Oussouye,SN,2020-02-23 20:23:58,12.48,-16.55,80.6,74,88,6.93,light rain,0.5,0.0
162,Corinto,GR,2020-02-23 20:23:58,37.94,22.96,51.01,57,54,3.36,broken clouds,0.0,0.0
163,Ashland,US,2020-02-23 20:23:58,40.82,-82.27,51.01,34,90,17.22,overcast clouds,0.0,0.0
164,Agadez,NE,2020-02-23 20:23:59,19.75,10.25,66.67,17,1,18.81,clear sky,0.0,0.0
165,Buala,SB,2020-02-23 20:23:59,-8.14,159.59,81.45,81,10,3.96,light rain,1.44,0.0
166,Orikum,AL,2020-02-23 20:23:59,40.33,19.47,48.22,59,68,4.47,broken clouds,0.0,0.0
167,Abu Samrah,SY,2020-02-23 20:23:59,35.3,37.18,50.95,71,0,8.97,clear sky,0.0,0.0
168,Waipawa,NZ,2020-02-23 20:24:00,-41.41,175.52,64.99,77,28,4.7,scattered clouds,0.0,0.0
169,Vestmannaeyjar,IS,2020-02-23 20:24:00,63.44,-20.27,35.6,63,40,23.04,scattered clouds,0.0,0.0
170,Karratha,AU,2020-02-23 20:23:40,-20.74,116.85,81.48,74,11,16.73,few clouds,0.0,0.0
171,Whitehorse,CA,2020-02-23 20:24:00,60.72,-135.05,23.0,73,90,6.93,light snow,0.0,0.0
172,Torbay,CA,2020-02-23 20:23:46,47.67,-52.73,35.01,81,20,18.34,few clouds,0.0,0.0
173,Tongchuan,CN,2020-02-23 20:24:01,35.08,109.09,45.81,56,66,2.84,broken clouds,0.0,0.0
174,Kropotkin,RU,2020-02-23 20:24:01,45.44,40.58,40.89,74,100,18.05,overcast clouds,0.0,0.0
175,Kamaishi,JP,2020-02-23 20:24:01,39.27,141.88,32.02,58,0,3.4,clear sky,0.0,0.0
176,Zarand,IR,2020-02-23 20:24:02,30.81,56.56,46.08,42,0,4.85,clear sky,0.0,0.0
177,Vila Do Maio,CV,2020-02-23 20:24:02,15.13,-23.22,69.8,73,75,18.34,broken clouds,0.0,0.0
178,Khalkhal,IR,2020-02-23 20:24:02,37.62,48.53,30.92,92,67,2.37,broken clouds,0.0,0.0
179,Chicama,PE,2020-02-23 20:24:02,-7.84,-79.15,75.2,83,75,6.93,mist,0.0,0.0
180,Norman Wells,CA,2020-02-23 20:24:03,65.28,-126.83,5.0,77,40,9.17,scattered clouds,0.0,0.0
181,Saint-Augustin,CA,2020-02-23 20:24:03,51.23,-58.65,20.84,78,97,10.02,overcast clouds,0.0,0.0
182,Port Hardy,CA,2020-02-23 20:24:03,50.7,-127.42,42.8,87,75,12.75,broken clouds,0.0,0.0
183,Kahului,US,2020-02-23 20:24:03,20.89,-156.47,78.8,61,20,8.05,few clouds,0.0,0.0
184,Labuhan,ID,2020-02-23 20:24:04,-6.88,112.21,74.53,94,0,3.24,clear sky,0.0,0.0
185,Dubbo,AU,2020-02-23 20:24:04,-32.25,148.62,64.4,82,90,8.05,overcast clouds,0.0,0.0
186,Sobolevo,RU,2020-02-23 20:24:04,54.43,31.9,32.52,80,100,11.95,overcast clouds,0.0,0.0
187,Thompson,CA,2020-02-23 20:21:22,55.74,-97.86,17.6,67,90,5.82,overcast clouds,0.0,0.0
188,Meadow Lake,US,2020-02-23 20:24:04,34.8,-106.54,50.0,49,90,19.46,overcast clouds,0.0,0.0
189,Sorland,NO,2020-02-23 20:24:05,67.67,12.69,35.6,80,75,34.45,shower rain,0.0,0.0
190,Hambantota,LK,2020-02-23 20:24:05,6.12,81.12,79.41,82,100,23.4,overcast clouds,0.0,0.0
191,San Jeronimo,PE,2020-02-23 20:21:43,-11.95,-75.28,55.26,63,98,3.47,moderate rain,4.31,0.0
192,Bongaree,AU,2020-02-23 20:24:05,-27.08,153.16,72.0,94,75,9.17,shower rain,0.0,0.0
193,Rundu,NA,2020-02-23 20:24:06,-17.93,19.77,73.22,75,99,8.84,overcast clouds,0.0,0.0
194,Ixtapa,MX,2020-02-23 20:20:16,20.7,-105.2,81.0,78,75,9.17,broken clouds,0.0,0.0
195,Okhotsk,RU,2020-02-23 20:24:06,59.38,143.3,-14.96,77,16,7.9,few clouds,0.0,0.0
196,Huarmey,PE,2020-02-23 20:24:07,-10.07,-78.15,82.13,49,76,9.17,broken clouds,0.0,0.0
197,Teruel,ES,2020-02-23 20:24:07,40.67,-0.67,55.4,42,0,4.7,clear sky,0.0,0.0
198,Nemuro,JP,2020-02-23 20:24:07,43.32,145.57,27.66,77,35,19.71,scattered clouds,0.0,0.0
199,Gamba,GA,2020-02-23 20:24:07,-2.65,10.0,78.48,90,71,3.85,broken clouds,0.0,0.0
200,Kruisfontein,ZA,2020-02-23 20:24:07,-34.0,24.73,56.48,78,0,4.38,clear sky,0.0,0.0
201,Walvis Bay,NA,2020-02-23 20:24:08,-22.96,14.51,64.4,88,10,8.05,clear sky,0.0,0.0
202,Taoudenni,ML,2020-02-23 20:24:08,22.68,-3.98,78.84,9,65,18.07,broken clouds,0.0,0.0
203,Sola,VU,2020-02-23 20:24:08,-13.88,167.55,83.14,77,20,14.7,few clouds,0.0,0.0
204,Kodiak,US,2020-02-23 20:24:08,57.79,-152.41,23.0,35,1,20.8,clear sky,0.0,0.0
205,Neyshabur,IR,2020-02-23 20:24:08,36.21,58.8,47.7,61,14,3.13,few clouds,0.0,0.0
206,Aklavik,CA,2020-02-23 20:24:09,68.22,-135.01,-2.2,77,75,4.7,broken clouds,0.0,0.0
207,George Town,MY,2020-02-23 20:21:12,5.41,100.34,80.6,74,20,3.36,few clouds,0.0,0.0
208,Fukuma,JP,2020-02-23 20:24:09,33.77,130.47,42.8,60,0,6.93,clear sky,0.0,0.0
209,Rio Verde De Mato Grosso,BR,2020-02-23 20:24:09,-18.92,-54.84,75.07,94,84,4.09,moderate rain,6.13,0.0
210,Airai,TL,2020-02-23 20:24:10,-8.93,125.41,66.69,82,0,4.43,clear sky,0.0,0.0
211,Grootfontein,NA,2020-02-23 20:24:10,-19.57,18.12,66.25,90,100,17.38,light rain,2.0,0.0
212,Mahebourg,MU,2020-02-23 20:24:10,-20.41,57.7,77.0,88,40,3.36,scattered clouds,0.0,0.0
213,Magway,MM,2020-02-23 20:24:10,20.15,94.92,68.23,41,0,2.82,clear sky,0.0,0.0
214,Mohnesee,DE,2020-02-23 20:24:10,51.5,8.13,44.01,75,75,9.17,light rain,0.19,0.0
215,Jingdezhen,CN,2020-02-23 20:24:11,29.29,117.21,54.97,88,100,3.2,overcast clouds,0.0,0.0
216,Abbeville,FR,2020-02-23 20:24:11,50.1,1.83,51.01,81,90,2.24,overcast clouds,0.0,0.0
217,Bathsheba,BB,2020-02-23 20:24:11,13.22,-59.52,84.2,70,75,14.99,broken clouds,0.0,0.0
218,Ndola,ZM,2020-02-23 20:24:11,-12.96,28.64,66.6,93,99,4.56,light rain,0.81,0.0
219,Jining,CN,2020-02-23 20:24:12,35.41,116.58,48.29,80,100,7.9,overcast clouds,0.0,0.0
220,Lorengau,PG,2020-02-23 20:24:12,-2.02,147.27,83.32,71,72,5.12,broken clouds,0.0,0.0
221,Srednekolymsk,RU,2020-02-23 20:24:12,67.45,153.68,-24.97,98,78,1.59,broken clouds,0.0,0.0
222,Alexandria,EG,2020-02-23 20:24:12,31.22,29.96,53.6,81,40,8.05,scattered clouds,0.0,0.0
223,Dunda,TZ,2020-02-23 20:24:12,-8.12,34.25,68.07,95,100,0.25,light rain,2.31,0.0
224,Papar,MY,2020-02-23 20:24:13,5.73,115.93,77.0,83,20,5.82,few clouds,0.0,0.0
225,Stettler,CA,2020-02-23 20:20:47,52.32,-112.72,32.0,44,70,11.01,broken clouds,0.0,0.0
226,Tiznit,MA,2020-02-23 20:24:13,29.58,-9.5,66.0,15,54,11.56,broken clouds,0.0,0.0
227,Eureka,US,2020-02-23 20:24:13,40.8,-124.16,57.0,71,90,5.82,overcast clouds,0.0,0.0
228,Osakarovka,KZ,2020-02-23 20:24:13,50.56,72.57,5.34,96,0,3.09,clear sky,0.0,0.0
229,Meiningen,DE,2020-02-23 20:24:14,50.57,10.42,51.01,70,40,27.51,scattered clouds,0.0,0.0
230,Nizhniy Kuranakh,RU,2020-02-23 20:24:14,58.84,125.49,8.2,96,99,2.91,light snow,0.0,0.31
231,Longyearbyen,SJ,2020-02-23 20:24:15,78.22,15.64,-4.0,70,20,6.93,few clouds,0.0,0.0
232,Praia,CV,2020-02-23 20:24:15,14.92,-23.51,69.8,73,75,18.34,broken clouds,0.0,0.0
233,Sao Joao Da Barra,BR,2020-02-23 20:24:15,-21.64,-41.05,78.8,61,100,9.17,overcast clouds,0.0,0.0
234,Upernavik,GL,2020-02-23 20:24:15,72.79,-56.15,-17.82,81,0,7.31,clear sky,0.0,0.0
235,Salme,NP,2020-02-23 20:24:15,28.04,85.09,48.2,87,20,5.19,mist,0.0,0.0
236,Christchurch,NZ,2020-02-23 20:22:14,-43.53,172.63,68.0,67,0,12.75,clear sky,0.0,0.0
237,Vyazemskiy,RU,2020-02-23 20:24:16,47.54,134.75,7.59,95,100,5.08,overcast clouds,0.0,0.0
238,Okato,NZ,2020-02-23 20:24:16,-39.2,173.88,55.0,68,2,18.01,clear sky,0.0,0.0
239,Saint George,US,2020-02-23 20:24:16,37.1,-113.58,55.0,53,1,4.7,clear sky,0.0,0.0
240,Progreso,MX,2020-02-23 20:24:16,21.28,-89.67,87.8,35,40,6.93,scattered clouds,0.0,0.0
241,Khatanga,RU,2020-02-23 20:24:17,71.97,102.5,14.29,91,96,15.57,light snow,0.0,0.25
242,Yambio,SS,2020-02-23 20:24:17,4.57,28.4,79.09,42,24,3.15,few clouds,0.0,0.0
243,Moose Factory,CA,2020-02-23 20:24:17,51.26,-80.61,14.0,78,20,13.87,few clouds,0.0,0.0
244,Lompoc,US,2020-02-23 20:24:18,34.64,-120.46,66.0,59,20,11.41,few clouds,0.0,0.0
245,Coos Bay,US,2020-02-23 20:21:33,43.37,-124.22,50.0,81,90,13.87,light rain,0.0,0.0
246,Pangoa,PE,2020-02-23 20:24:18,-12.12,-73.0,70.92,96,100,0.45,light rain,0.19,0.0
247,Ghanzi,BW,2020-02-23 20:24:18,-21.57,21.78,68.23,89,100,4.61,light rain,0.56,0.0
248,Nome,US,2020-02-23 20:21:22,64.5,-165.41,3.2,77,90,10.29,light snow,0.0,0.0
249,Khandyga,RU,2020-02-23 20:24:19,62.67,135.6,-5.62,98,100,2.59,light snow,0.0,0.19
250,Jatai,BR,2020-02-23 20:24:19,-17.88,-51.71,77.05,91,93,1.9,moderate rain,8.06,0.0
251,Dunmore East,IE,2020-02-23 20:24:19,52.15,-6.99,43.0,93,40,3.36,light rain,0.0,0.0
252,Katsuura,JP,2020-02-23 20:24:19,35.13,140.3,44.6,39,40,9.17,scattered clouds,0.0,0.0
253,Rio Gallegos,AR,2020-02-23 20:24:20,-51.62,-69.22,64.4,31,75,18.34,broken clouds,0.0,0.0
254,Acapulco,MX,2020-02-23 20:24:20,16.86,-99.89,84.2,74,5,12.75,clear sky,0.0,0.0
255,Dongli,CN,2020-02-23 20:24:20,23.57,116.82,55.4,87,0,14.5,clear sky,0.0,0.0
256,Sainte-Marie,RE,2020-02-23 20:24:20,-20.9,55.55,75.2,83,50,4.7,scattered clouds,0.0,0.0
257,Fairbanks,US,2020-02-23 20:20:26,64.84,-147.72,-2.0,83,40,3.36,scattered clouds,0.0,0.0
258,Arman,RU,2020-02-23 20:24:21,59.7,150.17,-2.31,98,38,4.09,scattered clouds,0.0,0.0
259,Faanui,PF,2020-02-23 20:24:21,-16.48,-151.75,82.76,72,55,11.88,broken clouds,0.0,0.0
260,Tanete,ID,2020-02-23 20:24:21,-3.94,119.78,75.34,95,86,0.63,overcast clouds,0.0,0.0
261,Hofn,IS,2020-02-23 20:24:22,64.25,-15.21,37.6,70,59,20.98,broken clouds,0.0,0.0
262,Helena,US,2020-02-23 20:22:51,46.59,-112.04,48.0,38,90,3.36,overcast clouds,0.0,0.0
263,Kaoma,ZM,2020-02-23 20:24:22,-14.78,24.8,69.3,92,99,2.51,light rain,1.81,0.0
264,Xapuri,BR,2020-02-23 20:24:22,-10.65,-68.5,80.6,69,75,4.7,broken clouds,0.0,0.0
265,Hamilton,US,2020-02-23 20:24:23,39.18,-84.53,53.01,32,90,9.17,overcast clouds,0.0,0.0
266,Gladstone,AU,2020-02-23 20:24:23,-23.85,151.25,73.4,88,75,6.93,broken clouds,0.0,0.0
267,Caninde De Sao Francisco,BR,2020-02-23 20:24:23,-9.66,-37.79,89.26,45,99,4.92,overcast clouds,0.0,0.0
268,Huilong,CN,2020-02-23 20:24:23,31.81,121.66,52.0,81,41,3.0,scattered clouds,0.0,0.0
269,Miri,MY,2020-02-23 20:24:23,4.41,114.01,77.0,94,75,3.36,broken clouds,0.0,0.0
270,Moyale,KE,2020-02-23 20:24:24,3.52,39.06,79.52,20,71,15.82,broken clouds,0.0,0.0
271,Abu Kamal,SY,2020-02-23 20:24:24,34.45,40.92,57.2,56,57,3.85,broken clouds,0.0,0.0
272,Egvekinot,RU,2020-02-23 20:24:24,66.32,-179.17,-29.07,88,0,1.74,clear sky,0.0,0.0
273,Inuvik,CA,2020-02-23 20:24:24,68.35,-133.72,-2.2,76,90,5.82,light snow,0.0,0.0
274,Kieta,PG,2020-02-23 20:24:24,-6.22,155.63,81.63,74,37,4.47,light rain,1.0,0.0
275,Alghero,IT,2020-02-23 20:24:25,40.56,8.32,48.2,93,0,2.24,clear sky,0.0,0.0
276,Merauke,ID,2020-02-23 20:24:25,-8.47,140.33,75.51,98,100,4.9,light rain,1.38,0.0
277,Kavaratti,IN,2020-02-23 20:24:26,10.57,72.64,81.52,75,100,8.14,overcast clouds,0.0,0.0
278,Auburn,US,2020-02-23 20:22:11,47.31,-122.23,48.0,75,75,10.29,moderate rain,0.0,0.0
279,Sosva,RU,2020-02-23 20:24:26,59.18,61.86,24.13,90,0,9.44,clear sky,0.0,0.0
280,Sitka,US,2020-02-23 20:24:26,57.05,-135.33,33.8,93,90,8.05,snow,0.0,0.0
281,Dingle,PH,2020-02-23 20:24:26,11.0,122.67,72.07,92,58,11.05,light rain,0.31,0.0
282,Khartoum,SD,2020-02-23 20:21:16,15.55,32.53,78.8,12,0,17.22,clear sky,0.0,0.0
283,Vanimo,PG,2020-02-23 20:24:27,-2.67,141.3,82.13,80,100,15.3,light rain,2.13,0.0
284,Tura,IN,2020-02-23 20:24:27,25.52,90.22,66.15,51,33,2.24,scattered clouds,0.0,0.0
285,Zaraza,VE,2020-02-23 20:24:27,9.35,-65.32,91.26,38,30,12.73,scattered clouds,0.0,0.0
286,Turayf,SA,2020-02-23 20:24:28,31.67,38.66,53.6,58,100,20.8,overcast clouds,0.0,0.0
287,Nouadhibou,MR,2020-02-23 20:24:28,20.93,-17.03,66.2,82,100,12.75,overcast clouds,0.0,0.0
288,Angoche,MZ,2020-02-23 20:24:28,-16.23,39.91,77.65,92,88,3.24,light rain,0.81,0.0
289,Jacareacanga,BR,2020-02-23 20:24:29,-6.22,-57.75,80.55,79,100,3.24,overcast clouds,0.0,0.0
290,Kalabo,ZM,2020-02-23 20:24:29,-14.97,22.68,69.55,95,100,1.7,heavy intensity rain,15.44,0.0
291,Tommot,RU,2020-02-23 20:24:29,58.96,126.29,6.87,97,100,2.39,light snow,0.0,0.38
292,Darhan,MN,2020-02-23 20:24:29,49.49,105.92,11.21,85,100,3.8,overcast clouds,0.0,0.0
293,Husavik,IS,2020-02-23 20:24:29,66.04,-17.34,19.56,83,2,10.6,clear sky,0.0,0.0
294,Lisakovsk,KZ,2020-02-23 20:24:30,52.54,62.49,10.22,96,66,8.14,broken clouds,0.0,0.0
295,Cabo San Lucas,MX,2020-02-23 20:24:30,22.89,-109.91,82.4,44,40,10.29,scattered clouds,0.0,0.0
296,Tuatapere,NZ,2020-02-23 20:24:30,-46.13,167.68,55.0,89,72,5.01,broken clouds,0.0,0.0
297,Yarada,IN,2020-02-23 20:24:30,17.65,83.27,69.8,94,11,2.24,mist,0.0,0.0
298,Hami,CN,2020-02-23 20:24:31,42.8,93.45,28.92,59,65,0.63,broken clouds,0.0,0.0
299,Plettenberg Bay,ZA,2020-02-23 20:24:31,-34.05,23.37,61.75,76,12,5.93,few clouds,0.0,0.0
300,Sao Joao Do Piaui,BR,2020-02-23 20:24:31,-8.36,-42.25,79.54,82,49,3.0,scattered clouds,0.0,0.0
301,Shaoxing,CN,2020-02-23 20:24:31,30.01,120.57,55.0,87,49,3.69,mist,0.0,0.0
302,Zeya,RU,2020-02-23 20:24:31,53.75,127.27,1.36,97,99,4.47,overcast clouds,0.0,0.0
303,Shingu,JP,2020-02-23 20:24:32,33.73,135.98,46.24,66,0,6.22,clear sky,0.0,0.0
304,Haines Junction,CA,2020-02-23 20:24:32,60.75,-137.51,9.45,92,100,5.12,light snow,0.0,0.81
305,Hasaki,JP,2020-02-23 20:24:32,35.73,140.83,32.0,33,20,3.36,few clouds,0.0,0.0
306,Mahanoro,MG,2020-02-23 20:24:32,-19.9,48.8,78.44,89,100,9.53,moderate rain,9.25,0.0
307,Paamiut,GL,2020-02-23 20:24:33,61.99,-49.67,16.54,65,100,5.82,overcast clouds,0.0,0.0
308,Saint-Joseph,RE,2020-02-23 20:24:33,-21.37,55.62,75.2,78,0,6.93,clear sky,0.0,0.0
309,Hay River,CA,2020-02-23 20:24:33,60.82,-115.8,-2.2,77,75,8.05,light snow,0.0,0.0
310,Freeport,US,2020-02-23 20:21:06,40.66,-73.58,57.2,27,1,13.87,clear sky,0.0,0.0
311,Santa Cruz,BO,2020-02-23 20:22:56,-17.8,-63.17,84.2,45,75,3.36,broken clouds,0.0,0.0
312,Schwabach,DE,2020-02-23 20:24:34,49.33,11.03,55.99,100,90,25.28,light rain,0.0,0.0
313,Zhicheng,CN,2020-02-23 20:24:34,30.3,111.5,57.0,81,97,2.66,overcast clouds,0.0,0.0
314,Cleveland,US,2020-02-23 20:19:43,41.5,-81.7,52.0,24,75,6.93,broken clouds,0.0,0.0
315,Yanahuanca,PE,2020-02-23 20:24:34,-10.52,-76.5,51.89,73,86,7.49,light rain,1.44,0.0
316,Sakhon Nakhon,TH,2020-02-23 20:24:34,17.16,104.15,66.99,67,0,9.89,clear sky,0.0,0.0
317,Broken Hill,AU,2020-02-23 20:22:52,-31.95,141.43,68.0,68,44,10.29,scattered clouds,0.0,0.0
318,Shaunavon,CA,2020-02-23 20:22:29,49.65,-108.42,27.32,89,100,11.79,overcast clouds,0.0,0.0
319,Almeirim,BR,2020-02-23 20:20:38,-1.52,-52.58,82.09,87,87,3.29,light rain,2.31,0.0
320,Saint-Paul-Les-Dax,FR,2020-02-23 20:24:35,43.73,-1.05,50.0,87,0,2.24,clear sky,0.0,0.0
321,Letlhakane,BW,2020-02-23 20:24:36,-21.42,25.58,69.3,79,87,19.62,light rain,2.75,0.0
322,West Wendover,US,2020-02-23 20:20:22,40.74,-114.07,46.4,31,1,6.93,clear sky,0.0,0.0
323,Buhe,CN,2020-02-23 20:24:36,30.29,112.23,57.0,81,100,7.9,overcast clouds,0.0,0.0
324,Kimbe,PG,2020-02-23 20:24:36,-5.55,150.14,76.82,92,66,2.93,light rain,2.13,0.0
325,Cherusti,RU,2020-02-23 20:24:37,55.55,40.01,29.1,92,1,7.58,clear sky,0.0,0.0
326,Atbasar,KZ,2020-02-23 20:24:37,51.8,68.33,6.66,100,63,1.77,broken clouds,0.0,0.0
327,Pimentel,PE,2020-02-23 20:24:37,-6.84,-79.93,66.2,29,75,11.41,broken clouds,0.0,0.0
328,Evansville,US,2020-02-23 20:22:19,37.97,-87.56,57.99,40,90,9.17,overcast clouds,0.0,0.0
329,Ucluelet,CA,2020-02-23 20:22:45,48.93,-125.55,46.99,87,75,24.16,light intensity shower rain,0.0,0.0
330,Kudahuvadhoo,MV,2020-02-23 20:24:38,2.67,72.89,82.76,82,100,18.45,light rain,0.13,0.0
331,Lieksa,FI,2020-02-23 20:24:38,63.32,30.02,28.4,92,82,7.34,broken clouds,0.0,0.0
332,Aviles,ES,2020-02-23 20:24:38,43.55,-5.92,52.0,93,75,4.7,mist,0.0,0.0
333,Deputatskiy,RU,2020-02-23 20:24:38,69.3,139.9,-21.6,96,0,3.11,clear sky,0.0,0.0
334,Cidreira,BR,2020-02-23 20:24:39,-30.18,-50.21,71.91,73,1,17.29,clear sky,0.0,0.0
335,Ismailia,EG,2020-02-23 20:24:39,30.6,32.27,56.61,63,0,4.36,light rain,0.13,0.0
336,Kaitangata,NZ,2020-02-23 20:24:39,-46.28,169.85,60.01,72,100,8.01,overcast clouds,0.0,0.0
337,Clyde River,CA,2020-02-23 20:24:39,70.47,-68.59,-22.0,74,90,9.17,light snow,0.0,0.0
338,Inhambane,MZ,2020-02-23 20:24:40,-23.86,35.38,77.0,94,75,20.8,broken clouds,0.0,0.0
339,Mount Gambier,AU,2020-02-23 20:24:40,-37.83,140.77,57.2,93,100,6.93,overcast clouds,0.0,0.0
340,Middle Island,US,2020-02-23 20:24:40,40.88,-72.94,55.0,25,1,13.87,clear sky,0.0,0.0
341,Sayaxche,GT,2020-02-23 20:24:40,16.52,-90.17,80.08,62,75,2.57,broken clouds,0.0,0.0
342,Tabuk,PH,2020-02-23 20:24:41,17.42,121.44,67.71,95,100,3.69,light rain,0.13,0.0
343,Metsavan,AM,2020-02-23 20:24:41,41.2,44.23,28.4,92,40,6.13,mist,0.0,0.0
344,Biu,NG,2020-02-23 20:24:41,10.61,12.19,79.61,14,0,18.32,clear sky,0.0,0.0
345,Mujiayingzi,CN,2020-02-23 20:24:41,42.12,118.78,26.1,71,85,1.86,overcast clouds,0.0,0.0
346,Chuguyevka,RU,2020-02-23 20:24:41,44.17,133.86,19.67,96,100,4.94,light snow,0.0,0.69
347,Smolenskoye,RU,2020-02-23 20:24:42,52.3,85.08,16.41,97,100,0.4,light snow,0.0,0.19
348,Piacabucu,BR,2020-02-23 20:24:42,-10.41,-36.43,81.18,80,98,9.33,overcast clouds,0.0,0.0
349,Rock Sound,BS,2020-02-23 20:24:42,24.9,-76.2,68.95,65,0,17.58,clear sky,0.0,0.0
350,Antigonish,CA,2020-02-23 20:24:43,45.62,-62.0,42.8,41,1,9.17,clear sky,0.0,0.0
351,Los Llanos De Aridane,ES,2020-02-23 20:24:43,28.66,-17.92,73.4,53,90,8.05,haze,0.0,0.0
352,Nurota,UZ,2020-02-23 20:24:43,40.56,65.69,42.8,87,85,2.24,overcast clouds,0.0,0.0
353,Batagay-Alyta,RU,2020-02-23 20:24:43,67.8,130.41,-19.79,68,0,3.87,clear sky,0.0,0.0
354,Bilibino,RU,2020-02-23 20:24:43,68.05,166.44,-31.63,98,40,2.42,scattered clouds,0.0,0.0
355,Asau,RO,2020-02-23 20:24:44,46.43,26.4,48.2,79,20,9.17,few clouds,0.0,0.0
356,Cairns,AU,2020-02-23 20:20:34,-16.92,145.77,78.01,94,75,2.24,light rain,0.0,0.0
357,Umm Bab,QA,2020-02-23 20:24:44,25.21,50.81,72.0,88,1,5.82,mist,0.0,0.0
358,Bridgetown,BB,2020-02-23 20:23:37,13.1,-59.62,84.2,70,75,14.99,broken clouds,0.0,0.0
359,Timizart,DZ,2020-02-23 20:24:45,36.8,4.27,59.31,65,0,5.57,clear sky,0.0,0.0
360,Vao,NC,2020-02-23 20:24:45,-22.67,167.48,78.08,75,50,12.88,scattered clouds,0.0,0.0
361,Amapa,BR,2020-02-23 20:24:45,1.0,-52.0,77.05,96,100,3.33,moderate rain,6.19,0.0
362,Palma Del Rio,ES,2020-02-23 20:24:45,37.7,-5.28,60.8,62,0,7.05,clear sky,0.0,0.0
363,Zyryanka,RU,2020-02-23 20:24:45,65.75,150.85,-11.83,98,100,2.08,overcast clouds,0.0,0.0
364,Portachuelo,BO,2020-02-23 20:24:46,-17.35,-63.4,84.2,42,75,6.93,broken clouds,0.0,0.0
365,Sao Jose Da Coroa Grande,BR,2020-02-23 20:24:46,-8.9,-35.15,82.38,77,3,14.03,clear sky,0.0,0.0
366,Tiksi,RU,2020-02-23 20:24:46,71.69,128.87,-8.19,87,100,7.85,overcast clouds,0.0,0.0
367,Medina,SA,2020-02-23 20:24:46,24.47,39.61,75.2,50,100,8.05,overcast clouds,0.0,0.0
368,Acari,PE,2020-02-23 20:24:46,-15.43,-74.62,74.8,66,60,7.67,broken clouds,0.0,0.0
369,Mount Isa,AU,2020-02-23 20:24:47,-20.73,139.5,78.8,78,100,6.93,light rain,0.13,0.0
370,Beringovskiy,RU,2020-02-23 20:24:47,63.05,179.32,-12.48,87,1,3.53,clear sky,0.0,0.0
371,Schopfheim,DE,2020-02-23 20:24:47,47.65,7.82,62.6,51,75,11.41,broken clouds,0.0,0.0
372,Flinders,AU,2020-02-23 20:24:48,-34.58,150.86,69.01,77,0,8.05,clear sky,0.0,0.0
373,Ormara,PK,2020-02-23 20:24:48,25.21,64.64,73.04,72,0,10.13,clear sky,0.0,0.0
374,Puerto Cabezas,NI,2020-02-23 20:24:48,14.04,-83.39,84.2,62,75,13.87,haze,0.0,0.0
375,Constitucion,CL,2020-02-23 20:24:48,-35.33,-72.42,61.25,82,67,6.71,broken clouds,0.0,0.0
376,Nantucket,US,2020-02-23 20:21:42,41.28,-70.1,50.0,75,1,13.87,clear sky,0.0,0.0
377,Saldanha,ZA,2020-02-23 20:24:49,-33.01,17.94,75.2,41,0,8.05,clear sky,0.0,0.0
378,Laguna,US,2020-02-23 20:24:49,38.42,-121.42,64.99,67,40,4.7,scattered clouds,0.0,0.0
379,Puksoozero,RU,2020-02-23 20:20:05,62.59,40.61,30.7,95,100,11.39,light snow,0.0,0.19
380,Turukhansk,RU,2020-02-23 20:24:49,65.82,87.98,13.62,94,100,13.04,light snow,0.0,0.63
381,Half Moon Bay,US,2020-02-23 20:23:31,37.46,-122.43,63.0,66,75,20.8,broken clouds,0.0,0.0
382,Uglegorskiy,RU,2020-02-23 20:24:50,48.24,41.25,35.76,92,100,18.81,light rain,0.81,0.0
383,Kutum,SD,2020-02-23 20:24:50,14.2,24.67,58.84,24,0,6.89,clear sky,0.0,0.0
384,Weston,US,2020-02-23 20:24:50,26.1,-80.4,77.0,41,75,11.41,broken clouds,0.0,0.0
385,Contai,IN,2020-02-23 20:24:50,21.78,87.75,69.1,70,0,5.23,clear sky,0.0,0.0
386,La Rioja,ES,2020-02-23 20:24:51,42.25,-2.5,51.01,76,0,3.29,clear sky,0.0,0.0
387,Baracoa,CU,2020-02-23 20:24:51,20.35,-74.5,75.51,76,36,17.78,light rain,0.63,0.0
388,Pacifica,US,2020-02-23 20:24:51,37.61,-122.49,63.0,66,75,20.8,broken clouds,0.0,0.0
389,Ancud,CL,2020-02-23 20:24:51,-41.87,-73.82,60.8,59,75,16.11,broken clouds,0.0,0.0
390,Paredon,MX,2020-02-23 20:24:52,16.03,-93.87,82.98,68,0,15.43,clear sky,0.0,0.0
391,Vrangel,RU,2020-02-23 20:24:52,42.73,133.08,37.22,70,100,10.96,overcast clouds,0.0,0.0
392,Mehamn,NO,2020-02-23 20:24:52,71.04,27.85,33.8,92,75,8.05,shower snow,0.0,0.0
393,San Cristobal,VE,2020-02-23 20:21:49,7.77,-72.22,82.4,58,40,4.7,scattered clouds,0.0,0.0
394,Tanout,NE,2020-02-23 20:24:53,14.97,8.89,72.18,13,0,18.05,clear sky,0.0,0.0
395,Broome,US,2020-02-23 20:24:53,42.25,-75.83,52.0,26,1,9.17,clear sky,0.0,0.0
396,Lukow,PL,2020-02-23 20:24:53,51.93,22.38,41.0,49,100,6.44,light rain,1.44,0.0
397,Padang,ID,2020-02-23 20:23:59,-0.95,100.35,69.89,84,0,6.46,clear sky,0.0,0.0
398,Ndioum,SN,2020-02-23 20:24:54,16.51,-14.65,86.0,27,100,2.24,overcast clouds,0.0,0.0
399,Qingdao,CN,2020-02-23 20:23:40,36.1,120.37,45.0,70,57,6.71,broken clouds,0.0,0.0
400,Iskateley,RU,2020-02-23 20:24:54,67.68,53.15,30.27,80,89,28.23,overcast clouds,0.0,0.0
401,Basoko,CD,2020-02-23 20:24:54,1.24,23.62,76.71,59,22,3.49,few clouds,0.0,0.0
402,Benicarlo,ES,2020-02-23 20:24:55,40.42,0.43,50.0,73,0,1.99,clear sky,0.0,0.0
403,Petropavlovsk-Kamchatskiy,RU,2020-02-23 20:24:55,53.05,158.65,21.2,57,100,11.18,overcast clouds,0.0,0.0
404,Bitung,ID,2020-02-23 20:24:55,1.45,125.18,75.2,94,40,0.38,scattered clouds,0.0,0.0
405,Dudinka,RU,2020-02-23 20:24:55,69.41,86.18,15.8,85,75,29.08,shower snow,0.0,0.0
406,Gbarnga,LR,2020-02-23 20:24:55,7.0,-9.47,81.27,74,20,6.73,few clouds,0.0,0.0
407,Porto Novo,BJ,2020-02-23 20:24:56,6.5,2.6,86.0,84,20,10.29,few clouds,0.0,0.0
408,The Valley,AI,2020-02-23 20:20:17,18.22,-63.06,82.4,65,40,5.82,scattered clouds,0.0,0.0
409,Gigmoto,PH,2020-02-23 20:24:56,13.78,124.39,79.77,81,0,15.28,light rain,0.5,0.0
410,Imbituba,BR,2020-02-23 20:22:52,-28.24,-48.67,77.0,61,75,9.17,broken clouds,0.0,0.0
411,Alta Floresta,BR,2020-02-23 20:24:57,-9.88,-56.09,82.4,78,40,3.36,scattered clouds,0.0,0.0
412,Fukue,JP,2020-02-23 20:24:57,32.69,128.84,48.2,70,0,4.7,clear sky,0.0,0.0
413,Kupang,ID,2020-02-23 20:24:57,-10.17,123.58,83.7,75,64,12.53,moderate rain,5.31,0.0
414,Pangody,RU,2020-02-23 20:24:57,65.85,74.49,24.85,89,99,22.66,light snow,0.0,0.13
415,Galesong,ID,2020-02-23 20:24:57,-5.32,119.37,77.0,100,20,3.36,light rain,0.0,0.0
416,Maceio,BR,2020-02-23 20:24:44,-9.67,-35.74,84.2,74,60,14.99,broken clouds,0.0,0.0
417,Rawlins,US,2020-02-23 20:24:58,41.79,-107.24,35.6,73,1,11.41,clear sky,0.0,0.0
418,Japura,ID,2020-02-23 20:24:58,-0.32,102.35,72.21,98,4,2.24,clear sky,0.0,0.0
419,Santa Cruz De Tenerife,ES,2020-02-23 20:21:50,28.47,-16.25,73.0,45,100,14.99,haze,0.0,0.0
420,Acarau,BR,2020-02-23 20:24:59,-2.89,-40.12,78.28,88,7,5.28,clear sky,0.0,0.0
421,Seymchan,RU,2020-02-23 20:24:59,62.88,152.43,-21.03,100,93,0.54,overcast clouds,0.0,0.0
422,Buncrana,IE,2020-02-23 20:24:59,55.13,-7.45,42.8,75,20,10.29,few clouds,0.0,0.0
423,Zaysan,KZ,2020-02-23 20:24:59,47.47,84.87,15.85,97,100,1.12,light snow,0.0,0.13
424,Keetmanshoop,NA,2020-02-23 20:24:59,-26.58,18.13,84.2,17,0,4.7,clear sky,0.0,0.0
425,Tomatlan,MX,2020-02-23 20:25:00,19.93,-105.25,94.77,25,18,9.17,few clouds,0.0,0.0
426,Marsaxlokk,MT,2020-02-23 20:25:00,35.84,14.54,57.0,82,45,14.99,scattered clouds,0.0,0.0
427,Talnakh,RU,2020-02-23 20:25:00,69.49,88.4,15.8,85,75,29.08,shower snow,0.0,0.0
428,Aswan,EG,2020-02-23 20:25:00,24.09,32.91,58.14,32,100,8.75,overcast clouds,0.0,0.0
429,Batticaloa,LK,2020-02-23 20:25:00,7.71,81.69,72.66,95,77,2.82,light rain,0.44,0.0
430,Hualmay,PE,2020-02-23 20:25:01,-11.1,-77.61,80.71,53,81,8.34,broken clouds,0.0,0.0
431,Termiz,UZ,2020-02-23 20:25:01,37.22,67.28,62.01,51,75,6.93,broken clouds,0.0,0.0
432,Pisco,PE,2020-02-23 20:25:01,-13.7,-76.22,71.6,30,40,10.29,scattered clouds,0.0,0.0
433,Belyy Yar,RU,2020-02-23 20:25:01,53.6,91.39,8.6,92,100,1.86,overcast clouds,0.0,0.0
434,Malkangiri,IN,2020-02-23 20:25:01,18.35,81.9,69.31,56,0,1.45,clear sky,0.0,0.0
435,Teya,RU,2020-02-23 20:21:06,60.38,92.63,1.76,93,3,3.27,clear sky,0.0,0.0
436,Maniitsoq,GL,2020-02-23 20:22:53,65.42,-52.9,12.11,64,32,10.87,scattered clouds,0.0,0.0
437,Yulara,AU,2020-02-23 20:25:02,-25.24,130.99,71.6,28,0,6.93,clear sky,0.0,0.0
438,Acajutiba,BR,2020-02-23 20:25:02,-11.66,-38.02,82.33,68,29,12.93,scattered clouds,0.0,0.0
439,Sahuaripa,MX,2020-02-23 20:25:03,29.05,-109.23,66.25,21,100,9.1,overcast clouds,0.0,0.0
440,Ozernovskiy,RU,2020-02-23 20:25:03,51.5,156.52,26.65,85,100,23.51,light snow,0.0,1.38
441,Nakusp,CA,2020-02-23 20:25:04,50.25,-117.8,28.99,95,100,1.99,snow,0.0,2.63
442,Bull Savanna,JM,2020-02-23 20:25:04,17.89,-77.59,71.53,88,92,3.24,light rain,2.56,0.0
443,Ambon,ID,2020-02-23 20:25:04,-3.7,128.18,80.82,80,100,9.48,light rain,0.44,0.0
444,Bukene,TZ,2020-02-23 20:25:04,-4.23,32.88,68.63,90,100,1.92,light rain,0.69,0.0
445,Ust-Omchug,RU,2020-02-23 20:25:04,61.15,149.63,-25.82,100,100,2.86,overcast clouds,0.0,0.0
446,Careiro Da Varzea,BR,2020-02-23 20:25:05,-3.2,-59.81,89.6,66,75,6.93,shower rain,0.0,0.0
447,Shimoda,JP,2020-02-23 20:25:05,34.67,138.95,37.99,80,0,13.89,clear sky,0.0,0.0
448,Urusha,RU,2020-02-23 20:25:05,54.05,122.9,-1.88,90,31,3.29,scattered clouds,0.0,0.0
449,Kysyl-Syr,RU,2020-02-23 20:25:05,63.9,122.76,-13.7,99,52,3.85,broken clouds,0.0,0.0
450,Puri,IN,2020-02-23 20:25:06,19.8,85.85,69.8,88,0,4.5,mist,0.0,0.0
451,Juneau,US,2020-02-23 20:23:12,58.3,-134.42,34.0,86,90,2.82,light rain,0.0,0.0
452,Wuda,CN,2020-02-23 20:25:06,39.5,106.71,36.14,36,100,11.52,overcast clouds,0.0,0.0
453,Pali,IN,2020-02-23 20:25:06,25.77,73.33,64.22,50,0,9.06,clear sky,0.0,0.0
454,Alanya,TR,2020-02-23 20:25:06,36.54,32.0,48.2,93,40,4.7,scattered clouds,0.0,0.0
455,Urumqi,CN,2020-02-23 20:25:07,43.8,87.6,32.0,88,75,4.47,broken clouds,0.0,0.0
456,Ambatofinandrahana,MG,2020-02-23 20:24:10,-20.55,46.8,62.6,96,39,2.33,light rain,0.5,0.0
457,Bambous Virieux,MU,2020-02-23 20:25:07,-20.34,57.76,77.0,88,40,3.36,scattered clouds,0.0,0.0
458,Santa Cruz De La Palma,ES,2020-02-23 20:25:07,28.68,-17.76,73.4,53,90,8.05,haze,0.0,0.0
459,Bandrele,YT,2020-02-23 20:25:07,-12.91,45.19,80.6,88,20,2.24,few clouds,0.0,0.0
460,Richards Bay,ZA,2020-02-23 20:25:08,-28.78,32.04,74.25,65,38,24.05,light rain,0.25,0.0
461,Elko,US,2020-02-23 20:25:08,41.0,-115.5,53.6,27,1,13.87,clear sky,0.0,0.0
462,Ushirombo,TZ,2020-02-23 20:25:08,-3.49,31.96,67.17,89,100,0.43,overcast clouds,0.0,0.0
463,Vila Velha,BR,2020-02-23 20:25:09,-20.33,-40.29,77.0,69,90,14.99,overcast clouds,0.0,0.0
464,Henties Bay,NA,2020-02-23 20:25:09,-22.12,14.28,64.0,92,17,5.01,few clouds,0.0,0.0
465,Ulladulla,AU,2020-02-23 20:25:09,-35.35,150.47,66.2,77,13,8.05,few clouds,0.0,0.0
466,Codrington,AU,2020-02-23 20:25:09,-38.27,141.97,62.26,89,97,10.07,overcast clouds,0.0,0.0
467,Sioux Lookout,CA,2020-02-23 20:25:10,50.1,-91.92,37.4,59,90,12.75,overcast clouds,0.0,0.0
468,Nagua,DO,2020-02-23 20:25:10,19.38,-69.85,75.2,94,75,16.11,broken clouds,0.0,0.0
469,Yelan,RU,2020-02-23 20:25:10,50.95,43.74,33.01,97,100,8.01,snow,0.0,2.25
470,Pergamino,AR,2020-02-23 20:21:09,-33.89,-60.57,82.0,44,10,4.0,clear sky,0.0,0.0
471,Yashkul,RU,2020-02-23 20:25:11,46.17,45.34,38.95,82,86,7.63,overcast clouds,0.0,0.0
472,Quesnel,CA,2020-02-23 20:23:21,53.0,-122.5,28.4,92,90,6.93,light snow,0.0,0.0
473,Bac Lieu,VN,2020-02-23 20:25:11,9.29,105.72,73.02,70,13,9.06,few clouds,0.0,0.0
474,Magdagachi,RU,2020-02-23 20:25:11,53.45,125.8,1.11,95,80,4.92,broken clouds,0.0,0.0
475,Deniliquin,AU,2020-02-23 20:25:12,-35.53,144.97,68.77,60,41,3.44,scattered clouds,0.0,0.0
476,Kashi,CN,2020-02-23 20:25:12,39.45,75.98,41.0,23,55,8.95,broken clouds,0.0,0.0
477,Tucuman,AR,2020-02-23 20:25:12,-26.82,-65.22,77.0,57,75,10.29,broken clouds,0.0,0.0
478,Faya,SA,2020-02-23 20:25:12,18.39,42.45,64.4,39,75,9.17,broken clouds,0.0,0.0
479,Vanavara,RU,2020-02-23 20:25:12,60.34,102.28,12.72,95,100,7.0,overcast clouds,0.0,0.0
480,Hirara,JP,2020-02-23 20:25:13,24.8,125.28,67.53,74,100,13.89,overcast clouds,0.0,0.0
481,San Jose,US,2020-02-23 20:22:32,37.34,-121.89,62.01,55,75,6.93,broken clouds,0.0,0.0
482,Svetlyy,RU,2020-02-23 20:25:13,54.67,20.13,37.4,93,75,4.47,broken clouds,0.0,0.0
483,Alofi,NU,2020-02-23 20:25:13,-19.06,-169.92,80.76,83,100,11.16,light rain,2.75,0.0
484,Pangkalanbuun,ID,2020-02-23 20:25:14,-2.68,111.62,74.91,95,36,2.17,scattered clouds,0.0,0.0
485,Komsomolskiy,UZ,2020-02-23 20:25:14,40.43,71.72,48.2,81,90,2.24,mist,0.0,0.0
486,Phra Phutthabat,TH,2020-02-23 20:25:14,14.73,100.8,82.99,43,98,2.13,overcast clouds,0.0,0.0
487,Northam,GB,2020-02-23 20:25:14,51.03,-4.22,50.0,81,75,4.09,broken clouds,0.0,0.0
488,Sarangani,PH,2020-02-23 20:25:14,5.4,125.46,81.1,79,100,20.09,overcast clouds,0.0,0.0
489,Sao Felix Do Xingu,BR,2020-02-23 20:25:15,-6.64,-51.99,78.17,94,100,1.19,moderate rain,3.25,0.0
490,Totness,SR,2020-02-23 20:25:15,5.88,-56.32,80.08,82,48,17.31,scattered clouds,0.0,0.0
491,Isangel,VU,2020-02-23 20:25:15,-19.55,169.27,73.4,94,20,14.54,few clouds,0.0,0.0
492,Bengkulu,ID,2020-02-23 20:25:16,-3.8,102.27,74.08,89,3,4.56,clear sky,0.0,0.0
493,Sambava,MG,2020-02-23 20:25:16,-14.27,50.17,73.98,98,100,1.54,light rain,2.88,0.0
494,Lagoa,PT,2020-02-23 20:25:16,39.05,-27.98,60.49,79,4,12.68,clear sky,0.0,0.0
495,Rathdrum,US,2020-02-23 20:25:16,47.81,-116.89,46.4,56,90,14.99,light rain,0.0,0.0
496,Karasburg,NA,2020-02-23 20:25:17,-28.02,18.75,80.24,20,0,12.01,clear sky,0.0,0.0
497,Bone,DE,2020-02-23 20:25:17,51.97,12.14,46.99,70,20,39.15,shower rain,0.0,0.0
498,Jales,BR,2020-02-23 20:21:53,-20.27,-50.55,77.18,90,100,4.54,light rain,0.88,0.0
499,Naze,JP,2020-02-23 20:25:17,28.37,129.48,50.0,87,0,4.7,clear sky,0.0,0.0
500,Novyy Urgal,RU,2020-02-23 20:25:18,51.07,132.56,-1.39,97,100,1.83,overcast clouds,0.0,0.0
501,Libenge,CD,2020-02-23 20:25:18,3.65,18.63,82.45,47,76,2.86,broken clouds,0.0,0.0
502,Dunedin,NZ,2020-02-23 20:23:47,-45.87,170.5,64.0,67,46,3.0,scattered clouds,0.0,0.0
503,Grinnell,US,2020-02-23 20:25:05,41.74,-92.72,60.8,37,1,6.93,clear sky,0.0,0.0
504,Bonfim,BR,2020-02-23 20:25:18,3.08,-59.95,96.6,34,100,10.54,overcast clouds,0.0,0.0
505,Manta,EC,2020-02-23 20:25:19,-0.95,-80.73,86.0,70,40,6.93,scattered clouds,0.0,0.0
506,Mombetsu,JP,2020-02-23 20:25:19,44.35,143.35,21.99,78,0,13.56,clear sky,0.0,0.0
507,Cotonou,BJ,2020-02-23 20:25:19,6.37,2.42,86.0,84,20,10.29,few clouds,0.0,0.0
508,Uvat,RU,2020-02-23 20:25:19,59.14,68.9,22.89,95,92,9.01,overcast clouds,0.0,0.0
509,Itarema,BR,2020-02-23 20:25:19,-2.92,-39.92,78.28,88,7,5.28,clear sky,0.0,0.0
510,Hope,US,2020-02-23 20:25:20,33.67,-93.59,54.0,93,90,6.93,mist,0.0,0.0
511,Ahipara,NZ,2020-02-23 20:25:20,-35.17,173.17,66.0,93,0,17.25,clear sky,0.0,0.0
512,Ochakiv,UA,2020-02-23 20:25:20,46.61,31.55,42.8,75,100,8.95,overcast clouds,0.0,0.0
513,Pevek,RU,2020-02-23 20:25:20,69.7,170.31,-13.94,99,100,5.64,overcast clouds,0.0,0.0
514,Ternate,ID,2020-02-23 20:25:21,0.8,127.4,72.3,91,88,2.42,overcast clouds,0.0,0.0
515,Arlit,NE,2020-02-23 20:25:21,18.74,7.39,70.0,16,25,10.38,scattered clouds,0.0,0.0
516,Rockport,US,2020-02-23 20:20:24,28.02,-97.05,75.99,60,1,12.75,clear sky,0.0,0.0
517,Puerto Leguizamo,CO,2020-02-23 20:25:21,-0.19,-74.78,77.4,93,100,4.0,light rain,1.63,0.0
518,Colares,PT,2020-02-23 20:25:21,38.8,-9.45,64.99,59,0,6.93,clear sky,0.0,0.0
519,Yamandu,SL,2020-02-23 20:25:22,7.94,-11.49,82.51,68,2,6.24,clear sky,0.0,0.0
520,Yablonovo,RU,2020-02-23 20:25:22,50.85,37.36,35.6,93,75,8.95,broken clouds,0.0,0.0
521,Batangafo,CF,2020-02-23 20:25:22,7.3,18.28,81.36,17,0,4.25,clear sky,0.0,0.0
522,Amga,RU,2020-02-23 20:25:22,60.9,131.96,-12.75,99,90,1.66,overcast clouds,0.0,0.0
523,Moranbah,AU,2020-02-23 20:25:22,-22.0,148.05,72.0,91,100,18.5,overcast clouds,0.0,0.0
524,Dwarka,IN,2020-02-23 20:25:23,22.24,68.97,76.08,58,0,12.44,clear sky,0.0,0.0
525,Klaksvik,FO,2020-02-23 20:25:23,62.23,-6.59,37.4,59,25,25.28,light rain,0.0,0.0
526,Touros,BR,2020-02-23 20:25:23,-5.2,-35.46,86.0,70,58,18.34,broken clouds,0.0,0.0
527,Tela,HN,2020-02-23 20:21:51,15.78,-87.45,87.8,66,40,2.24,scattered clouds,0.0,0.0
528,Campobello Di Mazara,IT,2020-02-23 20:25:24,37.64,12.74,62.01,93,40,4.7,scattered clouds,0.0,0.0
529,Tarko-Sale,RU,2020-02-23 20:25:24,64.92,77.78,19.0,92,100,21.77,overcast clouds,0.0,0.0
530,Nioro,GM,2020-02-23 20:25:24,13.35,-15.75,86.31,31,96,8.48,overcast clouds,0.0,0.0
531,Shelburne,CA,2020-02-23 20:24:49,44.08,-80.2,48.2,45,20,12.75,few clouds,0.0,0.0
532,Guerrero Negro,MX,2020-02-23 20:25:25,27.98,-114.06,64.15,59,100,18.7,overcast clouds,0.0,0.0
533,Olinda,BR,2020-02-23 20:25:25,-8.01,-34.86,86.0,70,20,9.17,few clouds,0.0,0.0
534,Uyskoye,RU,2020-02-23 20:25:25,54.38,60.0,7.63,96,5,8.61,clear sky,0.0,0.0
535,Nyurba,RU,2020-02-23 20:25:25,63.28,118.33,-6.61,96,91,5.99,overcast clouds,0.0,0.0
536,Fort Nelson,CA,2020-02-23 20:23:53,58.81,-122.7,23.0,53,20,4.7,few clouds,0.0,0.0
537,Praia Da Vitoria,PT,2020-02-23 20:25:26,38.73,-27.07,59.0,77,20,7.14,few clouds,0.0,0.0
538,Tilichiki,RU,2020-02-23 20:25:26,60.47,166.1,-5.6,91,100,6.93,overcast clouds,0.0,0.0
539,Namibe,AO,2020-02-23 20:25:18,-15.2,12.15,74.35,78,100,7.16,overcast clouds,0.0,0.0
540,Bandar,ID,2020-02-23 20:25:26,2.05,99.75,72.86,92,38,0.45,scattered clouds,0.0,0.0
541,Charters Towers,AU,2020-02-23 20:25:27,-20.1,146.27,74.14,91,100,10.83,overcast clouds,0.0,0.0
542,Limbe,CM,2020-02-23 20:25:27,4.02,9.21,86.0,84,40,3.36,scattered clouds,0.0,0.0
543,Marsh Harbour,BS,2020-02-23 20:25:27,26.54,-77.06,68.11,60,22,15.41,few clouds,0.0,0.0
544,Skibbereen,IE,2020-02-23 20:25:27,51.55,-9.27,41.0,100,75,10.29,light intensity drizzle rain,0.0,0.0
545,Bagotville,AU,2020-02-23 20:25:27,-28.98,153.42,68.0,94,90,2.59,overcast clouds,0.0,0.0
546,San Policarpo,PH,2020-02-23 20:25:28,12.18,125.51,78.6,86,6,15.23,light rain,0.69,0.0
547,Mitsamiouli,KM,2020-02-23 20:25:28,-11.38,43.28,84.56,77,100,10.16,light rain,0.19,0.0
548,Waitati,NZ,2020-02-23 20:25:28,-45.75,170.57,64.0,67,46,3.0,scattered clouds,0.0,0.0
549,Tahoua,NE,2020-02-23 20:25:28,14.89,5.27,76.69,13,0,14.65,clear sky,0.0,0.0
550,Chimore,BO,2020-02-23 20:25:28,-16.98,-65.13,84.56,51,66,1.99,broken clouds,0.0,0.0
551,Jackson,US,2020-02-23 20:25:29,42.42,-122.83,60.01,54,75,5.82,broken clouds,0.0,0.0
552,Kwinana,AU,2020-02-23 20:25:29,-32.25,115.77,72.0,73,49,18.34,light rain,0.44,0.0
553,La Palma,US,2020-02-23 20:25:29,33.85,-118.05,66.99,55,90,4.7,overcast clouds,0.0,0.0
554,Antalaha,MG,2020-02-23 20:25:30,-14.9,50.28,79.32,89,100,10.8,moderate rain,3.63,0.0
555,Port Augusta,AU,2020-02-23 20:25:30,-32.5,137.77,71.01,83,0,4.7,clear sky,0.0,0.0
556,Kovdor,RU,2020-02-23 20:25:30,67.57,30.48,18.93,92,100,5.57,overcast clouds,0.0,0.0
557,Tatarsk,RU,2020-02-23 20:25:30,55.22,75.98,10.31,97,98,3.04,overcast clouds,0.0,0.0
558,Anadyr,RU,2020-02-23 20:25:30,64.75,177.48,-20.0,75,0,2.24,clear sky,0.0,0.0
559,Sorong,ID,2020-02-23 20:25:31,-0.88,131.25,74.95,98,98,2.08,overcast clouds,0.0,0.0
560,Port Blair,IN,2020-02-23 20:25:31,11.67,92.75,80.69,75,100,11.63,overcast clouds,0.0,0.0
561,Gotsu,JP,2020-02-23 20:25:31,35.0,132.22,49.95,64,0,17.11,clear sky,0.0,0.0
562,College,US,2020-02-23 20:25:31,64.86,-147.8,-2.0,83,40,3.36,scattered clouds,0.0,0.0
563,General Roca,AR,2020-02-23 20:25:32,-39.03,-67.58,91.4,22,20,2.24,few clouds,0.0,0.0
564,Szydlowiec,PL,2020-02-23 20:25:32,51.23,20.86,46.0,93,100,19.66,moderate rain,8.81,0.0
565,Trelew,AR,2020-02-23 20:25:32,-43.25,-65.31,66.16,51,0,21.03,clear sky,0.0,0.0
566,Misratah,LY,2020-02-23 20:25:32,32.38,15.09,58.64,64,0,13.11,clear sky,0.0,0.0
567,Fukumitsu,JP,2020-02-23 20:25:32,36.55,136.87,39.99,86,40,8.05,scattered clouds,0.0,0.0
568,Quatre Cocos,MU,2020-02-23 20:25:33,-20.21,57.76,77.0,88,40,3.36,scattered clouds,0.0,0.0
569,Oktyabrskiy,RU,2020-02-23 20:25:33,54.48,53.47,23.36,90,100,17.27,light snow,0.0,0.25
570,Kedrovyy,RU,2020-02-23 20:25:33,56.17,91.82,10.4,85,40,1.72,scattered clouds,0.0,0.0
571,Kamina,CD,2020-02-23 20:25:33,-8.74,24.99,67.01,96,100,5.66,light rain,1.31,0.0
572,Trairi,BR,2020-02-23 20:25:33,-3.28,-39.27,76.59,89,99,2.53,overcast clouds,0.0,0.0
573,Antsohihy,MG,2020-02-23 20:25:34,-14.88,47.99,76.8,91,100,1.59,overcast clouds,0.0,0.0
574,Pelym,RU,2020-02-23 20:25:34,61.01,62.0,26.49,85,0,13.13,clear sky,0.0,0.0
